$GPRMC,115251.00,V,,,,,,,210324,,,N*78
$GPVTG,,,,,,,,,N*30
$GPGGA,115251.00,,,,,0,00,99.99,,,,,,*65
$GPGSA,A,1,,,,,,,
,,,,,,99.99,99.99,99.99*30
$GPGSV,2,1,07,03,,,19,18,,,35,20,,,$GPRMC,115252.00,V,,,,,,,210324,,,N*7B
$GPVTG,,,,,,,,,N*
30
$GPGGA,115252.00,,,,,0,00,99.99,,,,,,*66
$GPGSA,A,1,,,,,,,$GPRMC,115253.00,V,,,,,,,210324,,,N*7A
$GPVTG,,,,,,,,,N*
30
$GPGGA,115253.00,,,,,0,00,99.99,,,,,,*67
$GPGSA,A,1,,,,,,,$GPRMC,115254.00,V,,,,,,,210324,,,N*7D
$GPVTG,,,,,,,,,N*
30
$GPGGA,115254.00,,,,,0,00,99.99,,,,,,*60
$GPGSA,A,1,,,,,,,$GPRMC,115255.00,V,,,,,,,210324,,,N*7C
$GPVTG,,,,,,,,,N*
30
$GPGGA,115255.00,,,,,0,00,99.99,,,,,,*61
$GPGSA,A,1,,,,,,,$GPRMC,115256.00,V,,,,,,,210324,,,N*7F
$GPVTG,,,,,,,,,N*
30
$GPGGA,115256.00,,,,,0,00,99.99,,,,,,*62
$GPGSA,A,1,,,,,,,$GPRMC,115257.00,V,,,,,,,210324,,,N*7E
$GPVTG,,,,,,,,,N*
30
$GPGGA,115257.00,,,,,0,00,99.99,,,,,,*63
$GPGSA,A,1,,,,,,,$GPRMC,115258.00,V,,,,,,,210324,,,N*71
$GPVTG,,,,,,,,,N*
30
$GPGGA,115258.00,,,,,0,00,99.99,,,,,,*6C
$GPGSA,A,1,,,,,,,$GPRMC,115259.00,V,,,,,,,210324,,,N*70
$GPVTG,,,,,,,,,N*
30
$GPGGA,115259.00,,,,,0,00,99.99,,,,,,*6D
$GPGSA,A,1,,,,,,,$GPRMC,115300.00,V,,,,,,,210324,,,N*7D
$GPVTG,,,,,,,,,N*
30
$GPGGA,115300.00,,,,,0,00,99.99,,,,,,*60
$GPGSA,A,1,,,,,,,$GPRMC,115301.00,V,,,,,,,210324,,,N*7C
$GPVTG,,,,,,,,,N*
30
$GPGGA,115301.00,,,,,0,00,99.99,,,,,,*61
$GPGSA,A,1,,,,,,,$GPRMC,115302.00,A,4726.70178,N,01910.98799,E,0.051,,2103
24,,,A*77
$GPVTG,,T,,M,0.051,N,0.094,K,A*2A
$GPGGA,115302.00,$GPGSV,2,2,07,28,44,238,39,29,77,035,36,31,44,279,42*47

$GPGLL,4726.70178,N,01910.98799,E,115302.00,A,A*6C
$GPRMC,115303.00,A,4726.70194,N,01910.98803,E,0.059,,210324,,,A*70

$GPVTG,,T,,M,0.059,N,0.109,K,A*27
$GPGGA,115303.00,4726.70194,07,28,44,238,40,29,77,035,36,31,44,279,42*49
$GPGLL,4726
.70194,N,01910.98803,E,115303.00,A,A*63
$GPRMC,115304.00,A,4726.70179,N,01910.98798,E,0.042,,210324,,,A*73
$GPVTG,,T,,
M,0.042,N,0.078,K,A*2A
$GPGGA,115304.00,4726.70179,N,01910.9878,40,29,77,035,36,31,44,279,42*49
$GPGLL,4726.70179,N,01
910.98798,E,115304.00,A,A*6A
$GPRMC,115305.00,A,4726.70181,N,01910.98805,E,0.025,,210324,,,A*7F
$GPVTG,,T,,M,0.025,N,0
.047,K,A*27
$GPGGA,115305.00,4726.70181,N,01910.98805,E,1,06,1035,36,31,44,279,42*49
$GPGLL,4726.70181,N,01910.98805,E
,115305.00,A,A*67
$GPRMC,115306.00,A,4726.70172,N,01910.98808,E,0.070,,210324,,,A*7D
$GPVTG,,T,,M,0.070,N,0.130,K,A*26

$GPGGA,115306.00,4726.70172,N,01910.98808,E,1,06,1.29,172.9,M4,279,42*47
$GPGLL,4726.70172,N,01910.98808,E,115306.00,
A,A*65
$GPRMC,115307.00,A,4726.70170,N,01910.98807,E,0.014,,210324,,,A*73
$GPVTG,,T,,M,0.014,N,0.027,K,A*23
$GPGGA,11
5307.00,4726.70170,N,01910.98807,E,1,06,1.29,172.7,M,39.2,M,,*5
$GPGLL,4726.70170,N,01910.98807,E,115307.00,A,A*69
$GP
RMC,115308.00,A,4726.70166,N,01910.98816,E,0.018,,210324,,,A*7708,11,,,26,17,,,27,18,41,191,35,20,22,056,32*76
$GPGSV,2
,2,08,25,44,129,34,28,44,238,39,29,77,035,36,31,44,279,42*72
$$GPRMC,115309.00,A,4726.70162,N,01910.98822,E,0.079,,2103
24,,,A*72
$GPVTG,,T,,M,0.079,N,0.146,K,A*2E
$GPGGA,115309.00,V,2,2,08,25,44,129,34,28,44,238,39,29,77,035,35,31,44,279
,42*71
$GPGLL,4726.70162,N,01910.98822,E,115309.00,A,A*63
$GPRMC,115310.00,A,4726.70163,N,01910.98831,E,0.038,,210324,
,,A*7C
$GPVTG,,T,,M,0.038,N,0.071,K,A*2E
$GPGGA,115310.00,472,2,08,25,44,129,34,28,44,238,39,29,77,035,35,31,44,279,42
*71
$GPGLL,4726.70163,N,01910.98831,E,115310.00,A,A*68
$GPRMC,115311.00,A,4726.70169,N,01910.98837,E,0.010,,210324,,,A
*7B
$GPVTG,,T,,M,0.010,N,0.019,K,A*2A
$GPGGA,115311.00,4726.708,25,44,129,34,28,44,238,41,29,77,035,37,31,44,279,43*7D

$GPGLL,4726.70169,N,01910.98837,E,115311.00,A,A*65
$GPRMC,115312.00,A,4726.70168,N,01910.98847,E,0.084,,210324,,,A*73

$GPVTG,,T,,M,0.084,N,0.155,K,A*2E
$GPGGA,115312.00,4726.701625,44,129,33,28,44,238,40,29,77,035,36,31,44,279,42*7B
$
GPGLL,4726.70168,N,01910.98847,E,115312.00,A,A*60
$GPRMC,115313.00,A,4726.70167,N,01910.98856,E,0.054,,210324,,,A*70
$
GPVTG,,T,,M,0.054,N,0.099,K,A*22
$GPGGA,115313.00,4726.70167,N44,129,33,28,44,238,39,29,77,035,36,31,44,279,43*74
$GPG
LL,4726.70167,N,01910.98856,E,115313.00,A,A*6E
$GPRMC,115314.00,A,4726.70163,N,01910.98863,E,0.015,,210324,,,A*70
$GPV
TG,,T,,M,0.015,N,0.028,K,A*2D
$GPGGA,115314.00,4726.70163,N,01129,33,28,44,238,39,29,77,035,36,31,44,279,43*74
$GPGLL,
4726.70163,N,01910.98863,E,115314.00,A,A*6B
$GPRMC,115315.00,A,4726.70159,N,01910.98868,E,0.032,,210324,,,A*76
$GPVTG,
,T,,M,0.032,N,0.058,K,A*2F
$GPGGA,115315.00,4726.70159,N,01910,33,28,44,238,39,29,77,035,36,31,44,279,43*74
$GPGLL,472
6.70159,N,01910.98868,E,115315.00,A,A*68
$GPRMC,115316.00,A,4726.70151,N,01910.98868,E,0.024,,210324,,,A*7A
$GPVTG,,T,
,M,0.024,N,0.044,K,A*25
$GPGGA,115316.00,4726.70151,N,01910.9838,40,29,77,035,37,31,44,279,44*4E
$GPGLL,4726.70151,N,0
1910.98868,E,115316.00,A,A*63
$GPRMC,115317.00,A,4726.70149,N,01910.98876,E,0.044,,210324,,,A*7B
$GPVTG,,T,,M,0.044,N,
0.082,K,A*29
$GPGGA,115317.00,4726.70149,N,01910.98876,E,1,06,,035,37,31,44,279,44*4E
$GPGLL,4726.70149,N,01910.98876,
E,115317.00,A,A*64
$GPRMC,115318.00,A,4726.70145,N,01910.98883,E,0.011,,210324,,,A*72
$GPVTG,,T,,M,0.011,N,0.020,K,A*2
1
$GPGGA,115318.00,4726.70145,N,01910.98883,E,1,06,1.29,170.5,44,279,43*46
$GPGLL,4726.70145,N,01910.98883,E,115318.00
,A,A*6D
$GPRMC,115319.00,A,4726.70141,N,01910.98888,E,0.038,,210324,,,A*77
$GPVTG,,T,,M,0.038,N,0.070,K,A*2F
$GPGGA,1
15319.00,4726.70141,N,01910.98888,E,1,06,1.29,170.3,M,39.2,M,,*6
$GPGLL,4726.70141,N,01910.98888,E,115319.00,A,A*63
$G
PRMC,115320.00,A,4726.70144,N,01910.98897,E,0.010,,210324,,,A*7,07,11,,,27,18,41,191,34,20,22,056,31,25,44,129,33*44
$G
PGSV,2,2,07,28,44,238,39,29,77,035,37,31,44,279,43*47
$GPGLL,4$GPRMC,115321.00,A,4726.70142,N,01910.98901,E,0.016,,2103
24,,,A*73
$GPVTG,,T,,M,0.016,N,0.030,K,A*27
$GPGGA,115321.00,$GPGSV,2,2,08,26,,,29,28,44,238,40,29,77,035,37,31,44,279
,43*49
$GPGLL,4726.70142,N,01910.98901,E,115321.00,A,A*6B
$GPRMC,115322.00,A,4726.70140,N,01910.98904,E,0.020,,210324,
,,A*72
$GPVTG,,T,,M,0.020,N,0.038,K,A*2A
$GPGGA,115322.00,472GSV,2,2,08,26,,,28,28,44,238,40,29,77,035,37,31,44,279,43
*48
$GPGLL,4726.70140,N,01910.98904,E,115322.00,A,A*6F
$GPRMC,115323.00,A,4726.70137,N,01910.98911,E,0.051,,210324,,,A
*71
$GPVTG,,T,,M,0.051,N,0.094,K,A*2A
$GPGGA,115323.00,4726.7,3,2,09,26,,,28,27,,,23,28,44,238,39,29,77,035,37*7B
$GP
GSV,3,3,09,31,44,279,43*49
$GPGLL,4726.70137,N,01910.98911,E,1$GPRMC,115324.00,A,4726.70136,N,01910.98913,E,0.007,,2103
24,,,A*76
$GPVTG,,T,,M,0.007,N,0.013,K,A*26
$GPGGA,115324.00,$GPGSV,3,2,09,26,,,28,27,,,22,28,44,238,39,29,77,035,36*7
B
$GPGSV,3,3,09,31,44,279,43*49
$GPGLL,4726.70136,N,01910.989$GPRMC,115325.00,A,4726.70137,N,01910.98916,E,0.005,,2103
24,,,A*71
$GPVTG,,T,,M,0.005,N,0.010,K,A*27
$GPGGA,115325.00,$GPGSV,3,2,09,26,,,28,27,,,20,28,44,238,39,29,77,035,37*7
8
$GPGSV,3,3,09,31,44,279,43*49
$GPGLL,4726.70137,N,01910.989$GPRMC,115326.00,A,4726.70136,N,01910.98914,E,0.024,,2103
24,,,A*72
$GPVTG,,T,,M,0.024,N,0.044,K,A*25
$GPGGA,115326.00,$GPGSV,3,2,09,26,,,28,27,,,18,28,43,238,39,29,77,035,37*7
4
$GPGSV,3,3,09,31,44,279,43*49
$GPGLL,4726.70136,N,01910.989$GPRMC,115327.00,A,4726.70137,N,01910.98913,E,0.038,,2103
24,,,A*78
$GPVTG,,T,,M,0.038,N,0.071,K,A*2E
$GPGGA,115327.00,$GPGSV,3,2,09,26,,,28,27,,,13,28,43,238,40,29,77,035,37*7
1
$GPGSV,3,3,09,31,44,279,42*48
$GPGLL,4726.70137,N,01910.989$GPRMC,115328.00,A,4726.70138,N,01910.98913,E,0.029,,2103
24,,,A*78
$GPVTG,,T,,M,0.029,N,0.053,K,A*2E
$GPGGA,115328.00,$GPGSV,2,2,08,26,,,28,28,43,238,39,29,77,035,37,31,44,278
,43*40
$GPGLL,4726.70138,N,01910.98913,E,115328.00,A,A*6C
$GPRMC,115329.00,A,4726.70137,N,01910.98909,E,0.026,,210324,
,,A*72
$GPVTG,,T,,M,0.026,N,0.049,K,A*2A
$GPGGA,115329.00,472GSV,2,2,08,26,,,28,28,43,238,40,29,77,035,38,31,44,278,43
*41
$GPGLL,4726.70137,N,01910.98909,E,115329.00,A,A*69
$GPRMC,115330.00,A,4726.70133,N,01910.98909,E,0.056,,210324,,,A
*79
$GPVTG,,T,,M,0.056,N,0.104,K,A*25
$GPGGA,115330.00,4726.7,2,2,08,26,,,30,28,43,238,40,29,77,035,38,31,44,278,42*49

$GPGLL,4726.70133,N,01910.98909,E,115330.00,A,A*65
$GPRMC,115331.00,A,4726.70135,N,01910.98913,E,0.027,,210324,,,A*73

$GPVTG,,T,,M,0.027,N,0.049,K,A*2B
$GPGGA,115331.00,4726.70132,08,26,,,28,28,43,238,40,29,77,035,36,31,44,278,41*4D
$
GPGLL,4726.70135,N,01910.98913,E,115331.00,A,A*69
$GPRMC,115332.00,A,4726.70136,N,01910.98915,E,0.045,,210324,,,A*71
$
GPVTG,,T,,M,0.045,N,0.084,K,A*2E
$GPGGA,115332.00,4726.70136,N8,26,,,27,28,43,238,39,29,77,035,37,31,44,278,42*4E
$GPG
LL,4726.70136,N,01910.98915,E,115332.00,A,A*6F
$GPRMC,115333.00,A,4726.70135,N,01910.98916,E,0.043,,210324,,,A*76
$GPV
TG,,T,,M,0.043,N,0.080,K,A*2C
$GPGGA,115333.00,4726.70135,N,01,2,08,26,,,26,28,43,238,40,29,77,035,37,31,44,278,41*42

$GPGLL,4726.70135,N,01910.98916,E,115333.00,A,A*6E
$GPRMC,115334.00,A,4726.70133,N,01910.98919,E,0.039,,210324,,,A*75

$GPVTG,,T,,M,0.039,N,0.072,K,A*2C
$GPGGA,115334.00,4726.70133,SV,2,2,08,26,,,31,28,43,238,40,29,77,035,38,31,44,278,42*
48
$GPGLL,4726.70133,N,01910.98919,E,115334.00,A,A*60
$GPRMC,115335.00,A,4726.70131,N,01910.98921,E,0.016,,210324,,,A*
70
$GPVTG,,T,,M,0.016,N,0.029,K,A*2F
$GPGGA,115335.00,4726.70$GPGSV,2,2,08,26,,,29,28,43,238,41,29,77,035,38,31,44,278
,42*40
$GPGLL,4726.70131,N,01910.98921,E,115335.00,A,A*68
$GPRMC,115336.00,A,4726.70127,N,01910.98927,E,0.014,,210324,
,,A*70
$GPVTG,,T,,M,0.014,N,0.026,K,A*22
$GPGGA,115336.00,47271
$GPGSV,2,2,08,26,,,29,28,43,238,39,29,77,035,37,31,44
,278,43*41
$GPGLL,4726.70127,N,01910.98927,E,115336.00,A,A*6A$GPRMC,115337.00,A,4726.70126,N,01910.98931,E,0.004,,2103
24,,,A*76
$GPVTG,,T,,M,0.004,N,0.007,K,A*20
$GPGGA,115337.00,34*77
$GPGSV,2,2,08,26,,,28,28,43,238,41,29,77,035,37,31
,44,278,43*4F
$GPGLL,4726.70126,N,01910.98931,E,115337.00,A,A*$GPRMC,115338.00,A,4726.70125,N,01910.98935,E,0.015,,2103
24,,,A*7E
$GPVTG,,T,,M,0.015,N,0.028,K,A*2D
$GPGGA,115338.00,35*70
$GPGSV,2,2,08,26,,,29,28,43,238,40,29,77,035,38,31
,44,278,43*40
$GPGLL,4726.70125,N,01910.98935,E,115338.00,A,A*$GPRMC,115339.00,A,4726.70123,N,01910.98938,E,0.057,,2103
24,,,A*72
$GPVTG,,T,,M,0.057,N,0.106,K,A*26
$GPGGA,115339.00,35*70
$GPGSV,2,2,08,26,,,29,28,43,238,40,29,77,035,38,31
,44,278,43*40
$GPGLL,4726.70123,N,01910.98938,E,115339.00,A,A*$GPRMC,115340.00,A,4726.70120,N,01910.98940,E,0.069,,2103
24,,,A*7D
$GPVTG,,T,,M,0.069,N,0.128,K,A*27
$GPGGA,115340.00,35*71
$GPGSV,2,2,08,26,,,29,28,43,238,39,29,77,035,37,31
,44,278,43*41
$GPGLL,4726.70120,N,01910.98940,E,115340.00,A,A*$GPRMC,115341.00,A,4726.70117,N,01910.98944,E,0.044,,2103
24,,,A*73
$GPVTG,,T,,M,0.044,N,0.081,K,A*2A
$GPGGA,115341.00,34*77
$GPGSV,2,2,08,26,,,29,28,43,238,39,29,77,035,37,31
,44,278,43*41
$GPGLL,4726.70117,N,01910.98944,E,115341.00,A,A*$GPRMC,115342.00,A,4726.70114,N,01910.98944,E,0.007,,2103
24,,,A*74
$GPVTG,,T,,M,0.007,N,0.012,K,A*27
$GPGGA,115342.00,35*70
$GPGSV,2,2,08,26,,,29,28,43,238,40,29,77,035,38,31
,44,278,43*40
$GPGLL,4726.70114,N,01910.98944,E,115342.00,A,A*$GPRMC,115343.00,A,4726.70108,N,01910.98940,E,0.060,,2103
24,,,A*7D
$GPVTG,,T,,M,0.060,N,0.112,K,A*27
$GPGGA,115343.00,35*70
$GPGSV,2,2,08,26,,,29,28,43,238,39,29,77,035,38,31
,44,278,43*4E
$GPGLL,4726.70108,N,01910.98940,E,115343.00,A,A*$GPRMC,115344.00,A,4726.70105,N,01910.98942,E,0.036,,2103
24,,,A*76
$GPVTG,,T,,M,0.036,N,0.067,K,A*27
$GPGGA,115344.00,35*76
$GPGSV,3,2,09,26,,,29,28,43,238,38,29,77,035,37,31
,44,278,42*41
$GPGSV,3,3,09,39,35,172,27*4D
$GPGLL,4726.70105$GPRMC,115345.00,A,4726.70101,N,01910.98945,E,0.085,,2103
24,,,A*7C
$GPVTG,,T,,M,0.085,N,0.158,K,A*22
$GPGGA,115345.00,35*77
$GPGSV,2,2,08,26,,,28,28,43,238,38,29,77,035,37,31
,44,278,42*40
$GPGLL,4726.70101,N,01910.98945,E,115345.00,A,A*$GPRMC,115346.00,A,4726.70099,N,01910.98943,E,0.011,,2103
24,,,A*74
$GPVTG,,T,,M,0.011,N,0.021,K,A*20
$GPGGA,115346.00,35*70
$GPGSV,2,2,08,26,,,29,28,43,238,39,29,77,035,38,31
,44,278,42*4F
$GPGLL,4726.70099,N,01910.98943,E,115346.00,A,A*$GPRMC,115347.00,A,4726.70098,N,01910.98943,E,0.028,,2103
24,,,A*7E
$GPVTG,,T,,M,0.028,N,0.053,K,A*2F
$GPGGA,115347.00,36*73
$GPGSV,2,2,08,26,,,29,28,43,238,39,29,77,035,38,31
,44,278,42*4F
$GPGLL,4726.70098,N,01910.98943,E,115347.00,A,A*$GPRMC,115348.00,A,4726.70097,N,01910.98942,E,0.036,,2103
24,,,A*70
$GPVTG,,T,,M,0.036,N,0.067,K,A*27
$GPGGA,115348.00,35*77
$GPGSV,2,2,08,26,,,29,28,43,237,39,29,77,035,36,31
,44,278,41*4D
$GPGLL,4726.70097,N,01910.98942,E,115348.00,A,A*$GPRMC,115349.00,A,4726.70096,N,01910.98939,E,0.041,,2103
24,,,A*7C
$GPVTG,,T,,M,0.041,N,0.076,K,A*27
$GPGGA,115349.00,35*77
$GPGSV,2,2,08,26,,,29,28,43,237,38,29,76,036,37,31
,44,278,41*4F
$GPGLL,4726.70096,N,01910.98939,E,115349.00,A,A*$GPRMC,115350.00,A,4726.70093,N,01910.98936,E,0.067,,2103
24,,,A*7A
$GPVTG,,T,,M,0.067,N,0.123,K,A*22
$GPGGA,115350.00,35*71
$GPGSV,2,2,08,26,,,29,28,43,237,39,29,76,036,37,31
,44,278,41*4E
$GPGLL,4726.70093,N,01910.98936,E,115350.00,A,A*$GPRMC,115351.00,A,4726.70094,N,01910.98936,E,0.052,,2103
24,,,A*7A
$GPVTG,,T,,M,0.052,N,0.096,K,A*2B
$GPGGA,115351.00,36*71
$GPGSV,2,2,08,26,,,29,28,43,237,39,29,76,036,37,31
,44,278,41*4E
$GPGLL,4726.70094,N,01910.98936,E,115351.00,A,A*$GPRMC,115352.00,A,4726.70095,N,01910.98934,E,0.032,,2103
24,,,A*7C
$GPVTG,,T,,M,0.032,N,0.059,K,A*2E
$GPGGA,115352.00,36*72
$GPGSV,2,2,08,26,,,29,28,43,237,39,29,76,036,36,31
,44,278,40*4E
$GPGLL,4726.70095,N,01910.98934,E,115352.00,A,A*$GPRMC,115353.00,A,4726.70093,N,01910.98932,E,0.104,,2103
24,,,A*79
$GPVTG,,T,,M,0.104,N,0.193,K,A*2D
$GPGGA,115353.00,36*72
$GPGSV,2,2,08,26,,,29,28,43,237,39,29,76,036,38,31
,44,278,38*4F
$GPGLL,4726.70093,N,01910.98932,E,115353.00,A,A*$GPRMC,115354.00,A,4726.70094,N,01910.98926,E,0.043,,2103
24,,,A*7E
$GPVTG,,T,,M,0.043,N,0.079,K,A*2A
$GPGGA,115354.00,37*70
$GPGSV,2,2,08,26,,,27,28,43,237,38,29,76,036,37,31
,44,278,41*41
$GPGLL,4726.70094,N,01910.98926,E,115354.00,A,A*$GPRMC,115355.00,A,4726.70094,N,01910.98921,E,0.031,,2103
24,,,A*7D
$GPVTG,,T,,M,0.031,N,0.057,K,A*23
$GPGGA,115355.00,36*70
$GPGSV,2,2,08,26,,,25,28,43,237,38,29,76,036,37,31
,44,278,41*43
$GPGLL,4726.70094,N,01910.98921,E,115355.00,A,A*$GPRMC,115356.00,A,4726.70095,N,01910.98916,E,0.030,,2103
24,,,A*7A
$GPVTG,,T,,M,0.030,N,0.056,K,A*23
$GPGGA,115356.00,36*71
$GPGSV,2,2,08,26,,,23,28,43,237,37,29,76,036,37,31
,44,278,41*4A
$GPGLL,4726.70095,N,01910.98916,E,115356.00,A,A*$GPRMC,115357.00,A,4726.70098,N,01910.98910,E,0.011,,2103
24,,,A*73
$GPVTG,,T,,M,0.011,N,0.021,K,A*20
$GPGGA,115357.00,36*71
$GPGSV,2,2,08,26,,,23,28,43,237,37,29,76,036,37,31
,44,278,41*4A
$GPGLL,4726.70098,N,01910.98910,E,115357.00,A,A*$GPRMC,115358.00,A,4726.70095,N,01910.98902,E,0.059,,2103
24,,,A*7E
$GPVTG,,T,,M,0.059,N,0.110,K,A*2F
$GPGGA,115358.00,37*70
$GPGSV,2,2,08,26,,,22,28,43,237,37,29,76,036,39,31
,44,278,41*45
$GPGLL,4726.70095,N,01910.98902,E,115358.00,A,A*$GPRMC,115359.00,A,4726.70094,N,01910.98892,E,0.014,,2103
24,,,A*7F
$GPVTG,,T,,M,0.014,N,0.026,K,A*22
$GPGGA,115359.00,37*70
$GPGSV,2,2,08,26,,,24,28,43,237,38,29,76,036,38,31
,44,278,41*4D
$GPGLL,4726.70094,N,01910.98892,E,115359.00,A,A*$GPRMC,115400.00,A,4726.70094,N,01910.98885,E,0.025,,2103
24,,,A*70
$GPVTG,,T,,M,0.025,N,0.047,K,A*27
$GPGGA,115400.00,37*77
$GPGSV,2,2,08,26,,,24,28,43,237,37,29,76,036,37,31
,44,278,40*4C
$GPGLL,4726.70094,N,01910.98885,E,115400.00,A,A*$GPRMC,115401.00,A,4726.70096,N,01910.98878,E,0.012,,2103
24,,,A*75
$GPVTG,,T,,M,0.012,N,0.022,K,A*20
$GPGGA,115401.00,37*77
$GPGSV,2,2,08,26,,,25,28,43,237,37,29,76,036,37,31
,44,278,40*4D
$GPGLL,4726.70096,N,01910.98878,E,115401.00,A,A*$GPRMC,115402.00,A,4726.70096,N,01910.98872,E,0.055,,2103
24,,,A*7F
$GPVTG,,T,,M,0.055,N,0.101,K,A*23
$GPGGA,115402.00,37*77
$GPGSV,2,2,08,26,,,25,28,43,237,37,29,76,036,37,31
